{"type":"FeatureCollection","features":[{"type":"Feature","properties":{"id":"marker-ie2ui9ow8","title":"ASAM Izmir","description":"","marker-size":"","marker-color":"","marker-symbol":""},"geometry":{"coordinates":[27.139836,38.42575],"type":"Point"},"id":"18d0dce9d11294fb5127afddbfcf8a80"},{"type":"Feature","properties":{"id":"marker-ie9mrpzq2","title":"ASAM Balikesir","description":"","marker-size":"medium","marker-color":"#1087bf","marker-symbol":""},"geometry":{"coordinates":[27.887864,39.64736],"type":"Point"},"id":"29b57e71fa2e07e375bc61cba0a8ec26"},{"type":"Feature","properties":{"id":"marker-ie2udwrh6","title":"ASAM Ã‡anakkale","description":"","marker-size":"","marker-color":"","marker-symbol":""},"geometry":{"coordinates":[26.406664,40.146953],"type":"Point"},"id":"4c6567add4f3027a18eba773ce9579ed"},{"type":"Feature","properties":{"id":"marker-ie2ugg9m7","title":"ASAM Edirne","description":"","marker-size":"","marker-color":"","marker-symbol":""},"geometry":{"coordinates":[26.552414,41.675958],"type":"Point"},"id":"7edb1973e13ae483381c3bdbccd4cd70"},{"type":"Feature","properties":{"id":"marker-ie9mtmna3","title":"ASAM Kirlareli","description":"","marker-size":"medium","marker-color":"#1087bf","marker-symbol":""},"geometry":{"coordinates":[27.225004,41.73387],"type":"Point"},"id":"9e4cbb14136997fbeed0b58868459245"},{"type":"Feature","properties":{"id":"marker-ie2ujctz9","title":"ASAM Mugla","description":"","marker-size":"","marker-color":"","marker-symbol":""},"geometry":{"coordinates":[28.362779,37.210711],"type":"Point"},"id":"aceefe27b5f64962ccea7e74e3f66f00"},{"type":"Feature","properties":{"id":"marker-ie9oc2rw0","title":"ASAM Mersin","description":"","marker-size":"medium","marker-color":"#1087bf","marker-symbol":""},"geometry":{"coordinates":[34.628992,36.811552],"type":"Point"},"id":"f264f1c8b9fa74e5b6c28fa2e409a5a1"}],"id":"lombie.nchg97jc"}